City,Lat,Lng,Max Temp,Humidity %,Cloudiness,Wind Speed,Country,Date,Temperature
Marsá Maţrūḩ,31.3525,27.2453,86.2,66,0,13.8,EG,1629552930,86.2
Rikitea,-23.1203,-134.9692,68.5,52,75,17.67,PF,1629552932,68.5
Roald,62.5833,6.1333,62.17,67,20,11.5,NO,1629552933,58.35
Ushuaia,-54.8,-68.3,31.66,69,20,1.14,AR,1629552934,31.66
Port Elizabeth,-33.918,25.5701,64.69,63,40,19.57,ZA,1629552936,64.69
Hong Kong,22.2855,114.1577,87.33,78,100,9.37,HK,1629552860,86.76
Abu Dhabi,24.4667,54.3667,104.11,42,0,12.66,AE,1629552648,102.22
Tiksi,71.6872,128.8694,41.0,96,100,8.81,RU,1629552939,41.0
Bend,44.0582,-121.3153,50.47,78,1,1.01,US,1629552924,45.46
Severo-Kuril'sk,50.6789,156.125,53.56,95,81,5.12,RU,1629552942,53.56
Saint George,37.1041,-113.5841,74.53,39,1,3.0,US,1629552943,73.0
Sarkand,45.41,79.9186,69.28,27,2,4.38,KZ,1629552944,69.28
Barcelona,41.3888,2.159,99.32,67,0,1.99,ES,1629552741,86.41
Ternuvate,47.8305,36.1276,78.28,42,28,13.09,UA,1629552947,78.28
Chui,-33.6971,-53.4616,58.82,54,79,7.67,UY,1629552948,58.82
Poros,37.4994,23.4536,92.61,47,0,9.6,GR,1629552949,89.76
Puerto Escondido,15.85,-97.0667,76.03,78,90,3.44,MX,1629552951,76.03
Inta,66.0317,60.1659,67.15,61,14,9.62,RU,1629552952,67.15
Hofn,64.2539,-15.2082,51.82,71,75,6.91,IS,1629552953,51.82
Rawson,-43.3002,-65.1023,45.88,64,100,20.78,AR,1629552955,45.88
Nekhayevskiy,50.4106,41.7561,77.99,48,91,9.84,RU,1629552956,77.99
Labytnangi,66.6572,66.4183,67.51,57,10,11.79,RU,1629552957,67.51
Bengkulu,-3.8004,102.2655,75.87,91,100,6.82,ID,1629552959,75.87
Saint-Philippe,-21.3585,55.7679,74.75,72,7,9.46,RE,1629552960,72.61
Vao,-22.6667,167.4833,68.2,73,80,15.48,NC,1629552961,68.2
Laas,46.6166,10.7002,78.71,63,53,3.8,IT,1629552963,78.13
Saskylakh,71.9167,114.0833,43.5,91,100,9.57,RU,1629552964,43.5
Faanui,-16.4833,-151.75,78.13,78,12,18.88,PF,1629552965,78.13
Hobart,-42.8794,147.3294,53.26,75,75,1.99,AU,1629552674,51.51
Saldanha,-33.0117,17.9442,60.85,57,1,10.65,ZA,1629552968,60.85
Jamestown,42.097,-79.2353,74.71,78,1,8.05,US,1629552964,72.77
Tura,25.5198,90.2201,74.43,95,84,4.05,IN,1629552970,74.43
Lompoc,34.6391,-120.4579,64.56,86,90,0.0,US,1629552705,60.67
Hualmay,-11.0964,-77.6139,62.24,81,71,6.93,PE,1629552973,62.24
Punta Arenas,-53.15,-70.9167,30.31,86,75,2.3,CL,1629552974,30.31
Barrow,71.2906,-156.7887,46.42,76,90,20.71,US,1629552975,46.42
Kodinsk,58.6881,99.1844,51.33,94,100,4.14,RU,1629552977,51.33
Chara,56.9064,118.2631,54.91,83,98,3.2,RU,1629552978,54.91
Bairiki Village,1.3292,172.9752,82.4,74,75,6.91,KI,1629552979,82.4
Mataura,-46.1927,168.8643,41.49,89,7,4.16,NZ,1629552981,41.49
Quelimane,-17.8786,36.8883,80.55,69,75,12.66,MZ,1629552982,80.55
Pisco,-13.7,-76.2167,61.02,88,90,2.3,PE,1629552983,60.85
Port Alfred,-33.5906,26.891,63.16,58,0,20.04,ZA,1629552985,63.16
Hasaki,35.7333,140.8333,77.4,84,100,12.12,JP,1629552986,77.4
Araouane,18.9048,-3.5265,109.15,10,4,14.63,ML,1629552987,109.15
Moussoro,13.6408,16.4901,97.43,30,89,8.95,TD,1629552989,97.43
Butaritari,3.0707,172.7902,80.08,74,100,17.74,KI,1629552990,80.08
Lumby,50.2498,-118.969,62.73,82,100,1.14,CA,1629552992,57.4
Hongjiang,27.11,109.9956,80.17,78,14,3.47,CN,1629552993,80.17
Nome,64.5011,-165.4064,48.27,82,90,11.5,US,1629552795,48.27
Karīmganj,24.8667,92.35,77.63,94,95,1.92,IN,1629552995,77.63
Sarangani,5.4033,125.4636,82.83,70,100,6.2,PH,1629552997,82.83
Bāfq,31.6128,55.4107,102.79,8,2,7.05,IR,1629552998,102.79
Padina,45.1181,20.7272,92.89,20,6,8.19,RS,1629552999,83.55
Buin,-33.7333,-70.75,55.62,47,100,4.47,CL,1629553001,53.02
Qaanaaq,77.484,-69.3632,38.26,85,100,4.0,GL,1629553002,38.26
Busselton,-33.65,115.3333,53.1,70,99,16.42,AU,1629553003,52.05
Atuona,-9.8,-139.0333,76.84,72,28,17.83,PF,1629553005,76.84
Kununurra,-15.7667,128.7333,71.58,68,0,4.61,AU,1629553006,71.58
Gourcy,13.2167,-2.35,93.97,43,79,6.22,BF,1629553007,93.97
Kargopol',61.5071,38.9456,68.68,42,3,2.62,RU,1629553009,68.68
Kumluca,36.3703,30.2869,90.73,47,2,9.24,TR,1629553010,90.73
San Patricio,28.017,-97.5169,87.66,67,10,10.69,US,1629553011,83.43
Puerto Ayora,-0.7393,-90.3518,68.56,96,98,5.99,EC,1629553013,68.56
Vaini,-21.2,-175.2,69.96,100,75,5.75,TO,1629553014,69.96
Turaif,31.6725,38.6637,104.25,13,0,0.0,SA,1629553015,104.25
Hilo,19.7297,-155.09,72.81,92,14,1.99,US,1629553017,72.25
Cape Town,-33.9258,18.4232,63.01,55,40,7.0,ZA,1629552840,61.88
Harlingen,26.1906,-97.6961,86.9,96,1,3.44,US,1629553019,81.72
Geraldton,-28.7667,114.6,55.81,94,90,5.75,AU,1629553021,55.81
Abu Samrah,35.3029,37.1841,101.68,11,0,7.58,SY,1629553022,101.68
Albany,42.6001,-73.9662,78.8,88,94,2.66,US,1629552837,74.71
Talnakh,69.4865,88.3972,49.82,78,100,13.78,RU,1629553024,49.82
Dikson,73.5069,80.5464,43.27,95,100,21.39,RU,1629553026,43.27
Castro,-24.7911,-50.0119,76.48,36,0,6.33,BR,1629552907,76.48
Petatlán,17.5167,-101.2667,76.8,93,100,3.8,MX,1629553028,76.8
Carnarvon,-24.8667,113.6333,64.47,70,0,18.41,AU,1629553030,64.47
Daru,-9.0763,143.2092,77.54,91,24,12.71,PG,1629553031,77.54
Kortkeros,61.8106,51.5806,71.6,69,100,3.56,RU,1629553032,71.6
Okhotsk,59.3833,143.3,57.15,96,98,4.34,RU,1629553034,57.15
Comodoro Rivadavia,-45.8667,-67.5,40.86,81,75,8.05,AR,1629552880,40.86
São Félix do Xingu,-6.6447,-51.995,94.48,22,9,4.59,BR,1629553036,94.48
Road Town,18.4167,-64.6167,86.04,79,40,12.66,VG,1629553037,85.98
Iqaluit,63.7506,-68.5145,49.73,71,90,9.22,CA,1629553039,49.73
Manaure,11.7751,-72.4445,86.22,64,99,11.92,CO,1629553040,86.22
Tecalitlán,19.4667,-103.3,66.65,95,93,2.89,MX,1629553041,66.65
Tynda,55.1667,124.7167,55.44,98,100,2.08,RU,1629553043,55.44
Palana,59.1167,159.9667,42.93,97,90,1.07,RU,1629553044,42.93
Sibolga,1.7427,98.7792,77.52,85,95,3.53,ID,1629553045,77.52
Anloga,5.7947,0.8973,84.42,88,100,12.66,GH,1629553047,84.42
Saint-Augustin,51.226,-58.6502,61.54,43,100,12.64,CA,1629553048,61.54
Campbell River,50.0163,-125.2446,57.92,94,20,3.44,CA,1629553049,50.16
Cidreira,-30.1811,-50.2056,63.19,85,16,9.89,BR,1629553051,63.19
Khatanga,71.9667,102.5,45.99,84,99,6.4,RU,1629553052,45.99
Khovd,48.0056,91.6419,44.49,70,97,4.72,MN,1629553053,44.49
Shimoda,34.6667,138.95,78.1,89,100,8.46,JP,1629553055,78.1
Hermanus,-34.4187,19.2345,60.8,58,5,10.98,ZA,1629553056,60.8
Mandan,46.8267,-100.8896,55.04,90,1,12.66,US,1629553057,52.74
Faya,18.3851,42.4509,77.52,32,95,5.88,SA,1629553058,77.52
Havelock,34.8791,-76.9013,81.05,94,90,3.0,US,1629553060,77.7
Chernyshevskiy,63.0128,112.4714,53.83,75,100,5.32,RU,1629553061,53.83
Karratha,-20.7377,116.8463,72.66,63,0,8.32,AU,1629553062,72.66
Ribeira Grande,38.5167,-28.7,77.4,73,20,6.91,PT,1629553064,77.4
Moose Factory,51.2585,-80.6094,71.6,78,1,9.22,CA,1629553065,71.58
Narsaq,60.9167,-46.05,59.22,53,98,12.95,GL,1629553066,59.22
Tuktoyaktuk,69.4541,-133.0374,48.2,100,90,3.44,CA,1629553068,48.2
Taltal,-25.4,-70.4833,65.35,61,0,5.46,CL,1629553069,65.35
Lavrentiya,65.5833,-171.0,44.4,90,14,7.58,RU,1629553070,44.4
Anadyr,64.75,177.4833,45.1,93,0,2.24,RU,1629553072,45.1
Wajir,1.7471,40.0573,94.12,28,79,14.25,KE,1629553073,94.12
Kapaa,22.0752,-159.319,79.12,78,40,1.01,US,1629553051,75.25
Berlevåg,70.8578,29.0864,45.63,80,100,14.97,NO,1629553075,45.63
Fort Nelson,58.8053,-122.7002,51.39,76,75,6.91,CA,1629553077,51.39
Camabatela,-8.1881,15.375,86.07,26,48,5.91,AO,1629553078,86.07
Arraial do Cabo,-22.9661,-42.0278,78.76,61,0,6.91,BR,1629553079,78.66
Pontianak,-0.0333,109.3333,75.18,94,75,0.0,ID,1629553081,75.18
Upernavik,72.7868,-56.1549,40.57,87,90,10.25,GL,1629553082,40.57
Miles City,46.4083,-105.8406,49.17,93,20,5.75,US,1629553083,49.17
Esperance,-33.8667,121.9,57.04,81,4,21.36,AU,1629553085,57.04
New Norfolk,-42.7826,147.0587,52.92,74,100,3.0,AU,1629553086,49.55
Bredasdorp,-34.5322,20.0403,63.72,45,75,8.05,ZA,1629553087,63.72
Bluff,-46.6,168.3333,41.81,79,49,15.86,NZ,1629553089,41.81
Coquimbo,-29.9533,-71.3436,55.13,82,0,8.05,CL,1629552883,55.13
Pierre,44.3683,-100.351,67.05,80,20,4.0,US,1629553091,63.95
Banda Aceh,5.5577,95.3222,79.03,82,97,9.46,ID,1629553092,79.03
Pemba,-12.974,40.5178,84.9,65,20,10.36,MZ,1629553094,84.9
Gillette,44.2911,-105.5022,48.81,90,1,5.01,US,1629553095,46.81
Iquitos,-3.7481,-73.2472,80.64,83,0,0.0,PE,1629552968,80.64
Touros,-5.1989,-35.4608,83.3,57,3,18.48,BR,1629553098,83.3
Kiryat Gat,31.61,34.7642,95.4,20,0,14.47,IL,1629553099,89.94
Chunhuhub,19.55,-88.6833,79.18,90,64,5.01,MX,1629553100,79.18
Sūsangerd,31.5608,48.1831,109.42,15,0,2.19,IR,1629553102,109.42
Aklavik,68.2191,-135.0107,48.92,93,75,5.75,CA,1629553103,44.6
Batagay-Alyta,67.8006,130.4114,54.39,87,100,2.55,RU,1629553104,54.39
Kavaratti,10.5669,72.642,82.04,76,65,14.12,IN,1629553106,82.04
Chokurdakh,70.6333,147.9167,46.71,84,95,14.56,RU,1629553107,46.71
Thompson,55.7435,-97.8558,46.56,93,90,6.91,CA,1629553108,46.56
Walvis Bay,-22.9575,14.5053,65.35,52,2,16.11,NA,1629553109,65.35
Bitkine,11.9801,18.2138,81.14,71,79,5.14,TD,1629553111,81.14
Mahébourg,-20.4081,57.7,73.69,73,75,5.75,MU,1629553112,73.69
Torbay,47.6666,-52.7314,60.58,80,75,13.8,CA,1629552930,59.22
La Paz,-16.5,-68.15,46.38,56,20,3.44,BO,1629553115,46.38
Najrān,17.4924,44.1277,95.65,17,100,16.06,SA,1629553116,95.65
Kavieng,-2.5744,150.7967,81.68,80,100,15.64,PG,1629553117,81.68
Houston,29.7633,-95.3633,85.05,78,1,1.99,US,1629552674,81.88
Lebu,-37.6167,-73.65,51.76,88,100,31.45,CL,1629553120,51.76
Nanortalik,60.1432,-45.2371,47.95,74,83,6.33,GL,1629553121,47.95
Lincoln,40.8,-96.667,66.29,74,1,5.99,US,1629553014,63.86
Hithadhoo,-0.6,73.0833,83.43,71,1,13.4,MV,1629553124,83.43
Suntar,62.1444,117.6319,57.06,97,100,9.24,RU,1629553125,57.06
Rio Grande,-32.035,-52.0986,60.91,77,100,8.88,BR,1629553118,60.91
East London,-33.0153,27.9116,63.54,63,0,19.57,ZA,1629553127,63.54
Alice Springs,-23.7,133.8833,58.55,23,0,0.0,AU,1629553129,58.55
Back Mountain,41.3359,-75.9963,74.77,91,45,1.83,US,1629553018,70.9
Dalian,38.9122,121.6022,71.53,94,0,8.95,CN,1629552932,71.53
Deputatsky,69.3,139.9,58.05,64,100,3.96,RU,1629553132,58.05
Cedar City,37.6775,-113.0619,63.39,63,1,3.44,US,1629553087,58.17
Eyrarbakki,63.863,-21.1481,57.2,76,100,3.65,IS,1629553135,56.68
Dorokhovo,55.5506,36.3744,64.13,75,100,4.14,RU,1629553136,64.13
Mar del Plata,-38.0023,-57.5575,48.22,87,75,10.36,AR,1629553137,48.22
Shubarkuduk,49.1447,56.4872,98.26,13,60,11.54,KZ,1629553139,98.26
Tingo María,-9.2895,-76.0088,71.91,88,75,2.3,PE,1629553140,71.91
Stryn,61.9045,6.7226,62.15,54,63,4.41,NO,1629553141,61.23
Esim,4.8699,-2.2405,80.29,73,86,9.75,GH,1629553143,80.29
Maryville,35.7565,-83.9705,79.09,95,75,0.0,US,1629553144,74.39
Olafsvik,64.8945,-23.7142,53.78,86,100,4.47,IS,1629553145,53.78
Port Blair,11.6667,92.75,81.66,78,35,7.07,IN,1629553147,81.66
Mount Gambier,-37.8333,140.7667,49.91,100,48,9.22,AU,1629553148,49.91
Sitka,57.0531,-135.33,55.29,82,90,5.75,US,1629553149,55.29
Avarua,-21.2078,-159.775,71.65,88,100,4.61,CK,1629553151,71.65
Port Lincoln,-34.7333,135.8667,53.71,91,0,11.3,AU,1629553152,53.71
Yeppoon,-23.1333,150.7333,60.58,85,0,3.91,AU,1629553153,60.58
Ekibastuz,51.6667,75.3667,74.41,27,0,7.92,KZ,1629553155,74.41
Licata,37.1071,13.9461,91.06,60,0,10.51,IT,1629553156,84.9
Vila Velha,-20.3297,-40.2925,78.75,65,0,12.66,BR,1629553137,78.75
Ambilobe,-13.2,49.05,83.25,45,0,1.88,MG,1629553159,83.25
Amahai,-3.3333,128.9167,77.54,87,100,4.18,ID,1629553160,77.54
Portobelo,9.55,-79.65,81.86,77,89,2.68,PA,1629553161,80.94
Yar-Sale,66.8333,70.8333,67.95,57,15,13.06,RU,1629553162,67.95
Sambava,-14.2667,50.1667,74.5,71,0,14.38,MG,1629553164,74.5
Kumul,42.8,93.45,83.3,14,100,10.58,CN,1629553165,83.3
Ponta do Sol,32.6667,-17.1,82.0,67,12,2.19,PT,1629553166,77.11
Gari,59.4307,62.3497,81.77,48,81,5.86,RU,1629553168,81.77
Ahipara,-35.1667,173.1667,53.96,89,89,10.18,NZ,1629553169,53.96
Yellowknife,62.456,-114.3525,41.52,100,20,4.61,CA,1629553170,41.52
El Alto,-4.2714,-81.2147,62.26,73,58,10.58,PE,1629553172,62.26
Erzin,36.9559,36.2,100.92,32,0,7.23,TR,1629553173,86.05
Port Hardy,50.6996,-127.4199,51.98,100,90,3.44,CA,1629553174,51.98
Ishigaki,24.3448,124.1572,83.98,74,24,10.38,JP,1629553176,83.98
Ilebo,-4.3167,20.5833,83.46,52,100,3.89,CD,1629553177,83.46
Tasiilaq,65.6145,-37.6368,48.36,93,100,7.23,GL,1629553178,48.36
Cabo San Lucas,22.8909,-109.9124,83.52,78,2,10.94,MX,1629552998,81.91
Provideniya,64.3833,-173.3,46.58,98,100,5.26,RU,1629553181,46.58
Sept-Îles,50.2001,-66.3821,66.25,66,75,3.0,CA,1629552910,64.83
Mount Isa,-20.7333,139.5,62.37,42,0,0.0,AU,1629553183,62.37
Ilhabela,-23.7781,-45.3581,76.26,69,11,6.82,BR,1629553185,76.26
Nikolskoye,59.7035,30.7861,60.69,82,100,5.14,RU,1629553186,60.69
Lagoa,39.05,-27.9833,73.02,76,0,8.79,PT,1629553187,73.02
Huayang,34.4155,109.9939,64.65,89,100,4.9,CN,1629553189,64.65
Klaksvík,62.2266,-6.589,54.52,86,81,20.0,FO,1629553190,54.52
Korgen,66.0771,13.8153,58.53,79,100,4.76,NO,1629553191,56.16
Aswān,24.0934,32.907,108.7,12,0,11.5,EG,1629553193,108.7
Rongai,-0.1733,35.8638,64.6,78,74,6.76,KE,1629553194,64.6
Machalí,-34.1833,-70.6667,54.68,47,90,8.05,CL,1629553195,54.68
Sørland,67.667,12.6934,50.07,72,82,18.25,NO,1629553197,50.07
Christchurch,-43.5333,172.6333,46.9,79,100,4.0,NZ,1629552940,44.94
Nadym,65.5333,72.5167,71.37,55,46,11.52,RU,1629553199,71.37
Pochutla,15.7432,-96.4661,74.82,87,100,2.26,MX,1629553200,74.01
São José da Coroa Grande,-8.8978,-35.1478,78.51,74,63,10.0,BR,1629553203,78.51
Narón,43.5167,-8.1528,84.04,78,99,9.46,ES,1629553205,74.01
Taguatinga,-12.3857,-46.5711,88.99,25,3,8.39,BR,1629553206,88.99
Nuuk,64.1835,-51.7216,50.61,87,40,9.22,GL,1629553207,50.61
Māngrol,21.1167,70.1167,78.1,85,100,11.7,IN,1629553209,78.1
Paithan,19.4833,75.3833,74.88,85,100,9.82,IN,1629553210,74.88
Praia,14.9215,-23.5087,84.74,74,40,8.05,CV,1629553211,84.74
Nioro,13.35,-15.75,89.31,60,72,5.3,GM,1629553213,89.31
Sumbe,-11.2061,13.8437,75.42,74,19,10.0,AO,1629553214,75.42
Jilib,0.4883,42.7854,86.76,49,39,13.51,SO,1629553216,86.76
Lázaro Cárdenas,17.9583,-102.2,79.21,89,100,5.37,MX,1629553217,79.21
Pangody,65.85,74.4859,67.69,67,28,6.53,RU,1629553218,67.69
Kayerkan,69.3497,87.7602,49.17,78,100,15.48,RU,1629553219,49.17
Goianésia,-15.3175,-49.1175,85.03,25,18,7.34,BR,1629553055,85.03
Tungor,53.3808,142.9564,66.2,56,100,9.46,RU,1629553222,66.2
Saarwellingen,49.35,6.8167,82.15,50,74,5.86,DE,1629553223,79.95
São João da Barra,-21.6403,-41.0511,78.89,62,0,12.66,BR,1629553225,78.89
Bilma,18.6853,12.9164,104.95,14,6,3.53,NE,1629553226,104.95
Philadelphia,39.9523,-75.1638,80.01,87,75,1.01,US,1629553194,76.26
Griffith,41.5284,-87.4237,80.89,82,1,1.01,US,1629553229,76.41
Husavik,66.0449,-17.3389,57.11,59,93,5.48,IS,1629553230,57.11
Morant Bay,17.8815,-76.4093,83.82,78,68,14.41,JM,1629553231,82.42
Raja,8.4596,25.678,82.06,66,35,5.35,SS,1629553232,82.06
Fortuna,40.5982,-124.1573,55.36,69,90,6.91,US,1629553234,54.34
Jhānsi,25.4333,78.5833,81.86,82,54,8.52,IN,1629553235,81.86
Sisimiut,66.9395,-53.6735,51.19,73,100,8.63,GL,1629553236,51.19
George Town,5.4112,100.3354,82.89,81,20,1.14,MY,1629553063,82.69
Bonavista,48.6499,-53.1147,61.12,75,95,10.18,CA,1629553239,59.0
Gazojak,41.1875,61.4036,92.79,12,0,17.2,TM,1629553240,92.79
Rome,43.2128,-75.4557,77.67,82,100,1.01,US,1629553187,74.64
Tāndā,26.55,82.65,83.66,79,81,7.34,IN,1629553243,83.66
Bodden Town,19.2833,-81.25,84.97,85,20,3.0,KY,1629553244,84.45
Moses Lake,47.1301,-119.2781,61.48,76,1,5.75,US,1629553245,57.87
Broken Hill,-31.95,141.4333,55.11,47,7,4.61,AU,1629553247,55.11
Marivan,35.5219,46.176,89.17,11,0,10.07,IR,1629553248,89.17
Baoqing,46.3317,132.2111,68.83,78,100,7.07,CN,1629553249,68.83
Bilibino,68.0546,166.4372,49.6,78,100,3.29,RU,1629553250,49.6
Souillac,-20.5167,57.5167,73.78,73,75,5.75,MU,1629553252,73.78
Sola,-13.8833,167.55,78.13,76,99,21.36,VU,1629553253,78.13
Trelew,-43.249,-65.3051,46.18,63,100,19.77,AR,1629553254,46.18
Mlonggo,-6.5333,110.7,84.09,77,65,0.89,ID,1629553256,84.09
Catuday,16.2923,119.8062,81.72,74,89,2.98,PH,1629553257,81.72
Jaca,42.569,-0.5499,90.01,23,1,9.24,ES,1629553259,90.01
Milas,37.3164,27.7839,94.66,26,0,16.11,TR,1629553260,92.55
Harper,4.375,-7.7169,77.38,84,98,9.46,LR,1629553261,77.38
Luanda,-8.8368,13.2343,77.0,73,75,8.05,AO,1629553225,77.0
Saint-Joseph,-21.3667,55.6167,73.76,73,4,7.36,RE,1629553264,71.62
Padang,-0.9492,100.3543,80.65,85,100,3.56,ID,1629553265,80.65
Øksfjord,70.2396,22.3479,50.07,79,100,7.23,NO,1629553266,49.44
Bambous Virieux,-20.3428,57.7575,73.65,73,75,5.75,MU,1629553268,73.65
Constitución,-35.3333,-72.4167,54.27,89,91,25.59,CL,1629553256,54.27
Kruisfontein,-34.0033,24.7314,60.89,61,4,16.04,ZA,1629553270,60.89
Yulara,-25.2406,130.9889,62.44,29,0,4.61,AU,1629553271,62.44
Mattru,7.6244,-11.8332,86.36,65,70,2.91,SL,1629553273,86.36
Chake Chake,-5.2459,39.7666,79.7,69,1,12.44,TZ,1629553274,79.7
Obo,5.3998,26.4869,80.33,67,54,4.18,CF,1629553275,80.33
Kloulklubed,7.0419,134.2556,83.61,70,100,5.12,PW,1629553277,83.61
Paamiut,61.994,-49.6678,50.07,64,98,7.36,GL,1629553278,50.07
Sligo,54.2697,-8.4694,66.51,94,75,6.91,IE,1629553279,65.82
La Palma,33.8464,-118.0467,71.11,89,90,1.99,US,1629553281,66.6
Necochea,-38.5473,-58.7368,47.03,72,100,14.36,AR,1629553245,47.03
Leningradskiy,69.3833,178.4167,38.17,90,100,2.91,RU,1629553283,38.17
Airai,-8.9266,125.4092,55.94,76,100,2.91,TL,1629553284,55.94
New Iberia,30.0035,-91.8187,85.96,94,1,0.0,US,1629553158,79.88
Jalu,29.0331,21.5482,98.56,20,0,10.27,LY,1629553287,98.56
Am Timan,11.0297,20.2827,81.39,71,93,6.53,TD,1629553288,81.39
João Pinheiro,-17.7425,-46.1725,79.75,34,86,7.83,BR,1629553290,79.75
Saint-Pierre,-21.3393,55.4781,74.84,72,75,6.91,RE,1629553291,72.7
Clyde River,70.4692,-68.5914,41.23,93,75,3.44,CA,1629553292,41.23
Flin Flon,54.7682,-101.865,51.64,82,75,11.5,CA,1629553293,51.64
Yong’an,39.6957,113.6871,64.42,87,2,8.1,CN,1629553295,64.42
Bhadrak,21.0633,86.5054,82.89,78,32,11.23,IN,1629553296,82.89
Dom Pedrito,-30.9828,-54.6731,59.83,88,97,9.22,BR,1629553297,59.83
Rāmhormoz,31.28,49.6035,107.67,16,0,16.82,IR,1629553299,107.67
Caravelas,-17.7125,-39.2481,80.35,53,15,8.12,BR,1629553300,80.35
Rafai,4.95,23.9167,72.01,95,100,3.47,CF,1629553301,72.01
Show Low,34.2542,-110.0298,60.13,82,1,3.44,US,1629553023,56.19
Severomuysk,56.1481,113.4267,43.66,94,100,3.6,RU,1629553304,43.66
Kulhudhuffushi,6.6221,73.07,82.47,76,80,13.15,MV,1629553305,82.47
Kaitangata,-46.2817,169.8464,35.55,88,70,4.79,NZ,1629553306,35.55
Ust-Maya,60.4167,134.5333,67.23,70,99,3.83,RU,1629553308,67.23
Abhā,18.2164,42.5053,77.25,50,40,11.5,SA,1629553309,77.25
Tessalit,20.1986,1.0114,108.66,6,13,14.74,ML,1629553310,108.66
Marinette,45.1,-87.6307,78.31,83,1,11.5,US,1629553312,76.87
Adré,13.4667,22.2,83.86,59,79,8.05,TD,1629553314,83.86
Launceston,-41.45,147.1667,52.81,88,97,3.0,AU,1629553316,50.85
Vanavara,60.34,102.2797,55.94,88,100,7.63,RU,1629553317,55.94
Zelenoborsk,61.4669,64.0333,84.45,28,84,12.1,RU,1629553318,84.45
Rock Sound,24.9,-76.2,83.57,74,12,13.06,BS,1629553320,83.57
Saint Paul Harbor,57.79,-152.4072,44.11,81,1,5.75,US,1629553321,44.11
Hamilton,39.1834,-84.5333,81.0,79,40,3.44,US,1629553322,76.68
Egvekinot,66.3167,-179.1667,41.47,97,89,3.87,RU,1629553324,41.47
Gondanglegi,-7.7479,112.0132,75.24,87,73,13.73,ID,1629553325,75.24
Waipawa,-41.4122,175.5153,36.23,83,10,6.93,NZ,1629553326,35.1
Masuda,34.6667,131.85,80.33,90,100,8.28,JP,1629553328,80.33
Sal Rei,16.1833,-22.9167,88.0,58,40,13.8,CV,1629553329,88.0
Tete,-16.1564,33.5867,91.49,35,40,12.66,MZ,1629553330,91.49
Jalingo,8.8833,11.3667,81.09,73,93,5.39,NG,1629553332,81.09
Gboko,7.3179,8.9951,78.12,78,99,3.44,NG,1629553333,78.12
Vostok,46.4856,135.8833,61.86,89,100,4.63,RU,1629553334,61.86
Kuruman,-27.4524,23.4325,68.99,14,0,11.05,ZA,1629553335,68.99
Adrar,20.5022,-10.0711,104.74,17,73,7.09,MR,1629553337,104.74
Östersund,63.1792,14.6357,52.25,71,40,18.41,SE,1629553338,52.25
San Cristobal,7.7669,-72.225,68.18,71,76,5.5,VE,1629553296,68.18
Sayyan,15.1718,44.3244,73.11,32,94,10.58,YE,1629553341,73.11
Lafiagi,8.8667,5.4167,85.68,66,95,3.71,NG,1629553342,85.68
Vanimo,-2.6741,141.3028,78.91,86,60,6.22,PG,1629553343,78.91
Lorengau,-2.0226,147.2712,79.48,83,100,12.62,PG,1629553345,79.48
Çubuk,40.2386,33.0322,85.6,24,20,5.75,TR,1629553346,83.66
Kupino,54.3663,77.2981,64.0,54,3,10.13,RU,1629553347,64.0
Korla,41.7597,86.1469,87.22,17,2,7.11,CN,1629553348,87.22
Talcahuano,-36.7167,-73.1167,55.08,82,90,19.57,CL,1629553215,55.08
Cap Malheureux,-19.9842,57.6142,73.89,68,93,3.0,MU,1629553351,73.47
Coahuayana Viejo,18.7333,-103.6833,80.08,91,87,1.68,MX,1629553352,80.08
Castro Urdiales,43.3829,-3.2204,80.82,62,8,7.02,ES,1629553354,77.86
Hetauda,27.4284,85.0322,83.55,93,100,1.48,NP,1629553355,83.55
Baião,-2.7906,-49.6717,92.95,39,62,4.21,BR,1629553356,92.95
Torquay,50.4638,-3.5143,72.52,90,85,12.01,GB,1629553358,69.17
Isakly,54.1333,51.5333,99.1,12,93,7.81,RU,1629553359,99.1
Rohatyn,49.409,24.6093,75.52,50,55,9.19,UA,1629553360,75.52
Carauari,-4.8828,-66.8958,92.16,47,44,2.51,BR,1629553361,92.16
Filingué,14.3521,3.3168,95.2,43,31,8.39,NE,1629553363,95.2
Goderich,43.7501,-81.7165,74.91,88,6,4.61,CA,1629553364,70.12
Lingao,19.9103,109.6859,82.29,80,64,7.85,CN,1629553365,82.29
Porto-Novo,6.4965,2.6036,76.82,89,96,10.0,BJ,1629553277,76.82
Agadir,30.4202,-9.5982,82.85,59,18,10.78,MA,1629553368,82.85
Ves'yegonsk,58.664,37.2604,72.03,42,2,1.23,RU,1629553369,72.03
Matai,-8.3,31.5167,65.95,60,100,3.33,TZ,1629553371,65.95
Buchanan,5.8808,-10.0467,87.76,80,56,9.17,LR,1629553372,87.76
Pevek,69.7008,170.3133,41.31,93,100,3.76,RU,1629553373,41.31
Tyup,42.7276,78.3648,61.39,68,6,5.37,KG,1629553375,61.39
Mitsamiouli,-11.3847,43.2844,82.69,69,40,14.97,KM,1629553376,82.69
Mogadishu,2.0371,45.3438,82.27,78,40,14.97,SO,1629553377,82.27
Bethel,41.3712,-73.414,77.94,92,90,4.61,US,1629553379,74.12
Hambantota,6.1241,81.1185,84.54,74,40,4.61,LK,1629553380,84.54
Burns Lake,54.2331,-125.7533,36.82,75,6,3.31,CA,1629553381,36.82
Caxito,-8.5785,13.6643,77.65,39,4,9.35,AO,1629553383,77.65
Pelotas,-31.7719,-52.3425,60.82,82,40,4.61,BR,1629553160,60.82
Stillwater,36.1156,-97.0584,83.88,92,90,4.61,US,1629553385,75.31
Guerrero Negro,27.9769,-114.0611,67.98,77,66,10.04,MX,1629553386,67.98
Sur,22.5667,59.5289,88.56,55,4,1.66,OM,1629553388,88.56
Dunedin,-45.8742,170.5036,44.8,65,67,14.0,NZ,1629553389,44.8
Narasannapeta,18.4167,84.05,81.19,83,73,8.48,IN,1629553390,81.19
Vila Franca do Campo,37.7167,-25.4333,77.41,62,100,6.8,PT,1629553392,77.41
Mehamn,71.0357,27.8492,45.1,79,100,14.05,NO,1629553393,45.1
Guider,9.9342,13.9486,88.68,64,97,8.3,CM,1629553394,88.68
Omsukchan,62.5333,155.8,50.61,79,54,7.02,RU,1629553396,50.61
Zhigansk,66.7697,123.3711,58.35,66,100,10.69,RU,1629553397,58.35
Velsk,61.0701,42.0983,71.8,52,100,0.51,RU,1629553398,71.8
Cap-aux-Meules,47.3821,-61.8597,68.05,77,40,8.05,CA,1629553400,68.02
Altay,47.8667,88.1167,60.71,39,11,5.55,CN,1629553401,60.71
Beringovskiy,63.05,179.3167,49.53,88,100,4.23,RU,1629553402,49.53
Talakan,50.3167,130.3667,66.06,95,100,8.68,RU,1629553404,66.06
Kovūr,14.4833,79.9833,85.62,65,37,11.65,IN,1629553405,85.62
Fare,-16.7,-151.0167,77.74,78,29,20.36,PF,1629553406,77.74
Amiens,49.9,2.3,79.45,62,100,6.73,FR,1629553408,75.99
Homer,59.6425,-151.5483,49.05,91,1,3.44,US,1629553409,43.65
Bonthe,7.5264,-12.505,83.57,70,86,7.87,SL,1629553410,83.57
Doha,25.2867,51.5333,109.71,21,0,9.22,QA,1629553412,105.03
Casper,42.8666,-106.3131,49.01,87,1,3.44,US,1629553413,43.39
Isangel,-19.55,169.2667,70.59,84,5,7.61,VU,1629553414,70.59
Alta Floresta,-9.8756,-56.0861,89.42,33,47,9.22,BR,1629553416,89.42
Quatre Cocos,-20.2078,57.7625,73.51,71,24,6.33,MU,1629553417,73.09
Tanete,-3.9443,119.7848,74.28,97,100,7.43,ID,1629553418,74.28
Norman Wells,65.282,-126.8329,53.64,54,75,9.22,CA,1629553420,53.64
Atar,20.5169,-13.0499,101.68,27,66,0.96,MR,1629553421,101.68
Corrales,35.2378,-106.6067,75.25,42,1,1.99,US,1629553422,64.71
South Lake Tahoe,38.9332,-119.9844,55.44,50,1,3.44,US,1629553423,50.49
Grand Gaube,-20.0064,57.6608,73.8,68,90,3.0,MU,1629553425,73.38
Loikaw,19.6742,97.2094,68.94,95,31,3.47,MM,1629553426,68.94
Erenhot,43.6475,111.9767,69.58,52,96,25.57,CN,1629553427,69.58
Huarmey,-10.0681,-78.1522,64.08,82,72,6.8,PE,1629553429,64.08
Prome,18.8167,95.2167,78.78,88,45,3.96,MM,1629553431,78.78
Mingshui,36.7167,117.5,73.36,89,90,4.72,CN,1629553432,73.36
Makokou,0.5738,12.8642,84.54,58,75,0.0,GA,1629553434,84.54
Dubbo,-32.25,148.6167,46.53,81,82,6.91,AU,1629553435,46.53
Ostrovnoy,68.0531,39.5131,50.2,89,100,10.65,RU,1629553436,50.2
Yanam,16.7333,82.2167,82.8,85,56,3.58,IN,1629553438,82.8
Te Anau,-45.4167,167.7167,41.43,93,100,5.79,NZ,1629553439,41.43
Portoferraio,42.8115,10.3146,89.58,58,0,6.91,IT,1629553440,86.56
Hirara,24.8,125.2833,83.77,74,80,17.11,JP,1629553442,83.77
Alpena,45.0617,-83.4327,73.65,88,1,5.75,US,1629553443,72.16
Laguna,38.421,-121.4238,62.06,86,90,3.0,US,1629553444,58.86
Fengzhen,40.4394,113.1536,68.04,50,27,5.97,CN,1629553446,68.04
Cherskiy,68.75,161.3,59.13,58,100,7.67,RU,1629553447,59.13
Plettenberg Bay,-34.0527,23.3716,58.1,67,45,9.78,ZA,1629553448,58.1
Russell,32.3502,-85.1999,76.98,90,90,4.61,US,1629553450,75.2
Biggar,55.6167,-3.5167,62.67,94,100,3.06,GB,1629553451,60.96
Helong,42.5397,128.9972,63.52,100,100,3.06,CN,1629553452,63.52
Novomyrhorod,48.7811,31.642,79.83,34,20,12.62,UA,1629553454,79.83
Müllendorf,49.6803,6.13,81.16,58,20,3.0,LU,1629553455,78.26
Rocha,-34.4833,-54.3333,58.53,52,69,6.85,UY,1629553456,58.53
Ouadda,8.0777,22.4007,77.58,84,48,2.8,CF,1629553458,77.58
Isla Aguada,18.7833,-91.4667,81.23,79,100,17.78,MX,1629553459,81.23
Lusambo,-4.9667,23.45,91.54,34,100,5.95,CD,1629553460,91.54
Ancud,-41.8697,-73.8203,42.42,93,100,14.61,CL,1629553462,42.33
Chu,43.5983,73.7614,78.22,18,0,12.53,KZ,1629553463,78.22
Pingliang,35.5392,106.6861,64.35,82,100,8.46,CN,1629553465,64.35
Margate,51.3813,1.3862,67.95,81,100,1.99,GB,1629553466,66.97
Grindavik,63.8424,-22.4338,55.9,66,0,4.61,IS,1629553467,54.07
Plouzané,48.3833,-4.6167,69.89,82,90,13.8,FR,1629553208,66.58
Salalah,17.0151,54.0924,82.49,78,40,9.22,OM,1629553470,82.49
Alofi,-19.0595,-169.9187,73.29,100,100,2.3,NU,1629553471,73.29
Marawi,7.9986,124.2928,67.64,94,100,0.56,PH,1629553472,67.64
Kanchanaburi,14.6333,99.1,79.11,84,65,2.73,TH,1629553474,79.11
Antsohihy,-14.8796,47.9875,90.14,23,0,13.4,MG,1629553475,90.14
Changqing,36.5575,116.7272,75.0,88,100,3.71,CN,1629553477,75.0
Luanda,-8.8368,13.2343,77.0,73,75,8.05,AO,1629553225,77.0
Kuytun,54.3419,101.5036,50.27,96,100,11.39,RU,1629553479,50.27
Haines Junction,60.7522,-137.5108,46.35,76,100,11.5,CA,1629553480,46.35
Luau,-10.7073,22.2247,93.11,13,13,4.23,AO,1629553482,93.11
Bathsheba,13.2167,-59.5167,84.81,79,75,14.97,BB,1629553483,84.81
Lata,40.1629,-8.3327,85.35,35,0,10.89,PT,1629553484,75.16
Kupang,-10.1667,123.5833,76.66,76,6,10.89,ID,1629553486,76.66
Krasnoarmeysk,51.0239,45.6969,92.16,22,65,15.82,RU,1629553487,87.89
Itaueira,-7.6033,-43.0256,90.23,27,6,10.47,BR,1629553488,90.23
Qaqortoq,60.7167,-46.0333,59.5,57,96,6.87,GL,1629553489,59.5
Holly Hill,29.2436,-81.0376,87.17,65,20,1.99,US,1629553491,84.7
Radomsko,51.0671,19.4448,68.72,53,90,6.55,PL,1629553302,68.72
Diveyevo,55.0433,43.2418,83.57,39,91,5.12,RU,1629553493,83.57
Port-Gentil,-0.7193,8.7815,82.36,69,75,13.8,GA,1629553495,82.36
Trzcianka,53.0406,16.4563,72.45,40,40,9.75,PL,1629553496,72.45
Nivala,63.9167,24.9667,57.69,93,100,3.02,FI,1629553497,57.69
Palu,-0.8917,119.8707,76.05,96,98,1.68,ID,1629553498,76.05
Chisec,15.8167,-90.2833,77.23,91,100,0.31,GT,1629553500,77.23
Abū Zabad,12.35,29.25,85.86,52,100,10.42,SD,1629553501,85.86
Departamento de Maldonado,-34.6667,-54.9167,55.22,51,100,6.53,UY,1629553321,51.19
Kieta,-6.2167,155.6333,79.16,84,93,6.04,PG,1629553507,79.16
Yenagoa,4.9247,6.2642,82.49,71,86,8.79,NG,1629553508,82.49
Ciudad Bolivar,8.1222,-63.5497,84.87,67,51,6.13,VE,1629553509,84.87
Aquiraz,-3.9014,-38.3911,86.09,50,16,15.48,BR,1629553511,86.09
Collie,-33.3667,116.15,50.99,86,46,7.54,AU,1629553512,50.99
Xalpatlahuac,17.4667,-98.6167,61.93,95,100,4.47,MX,1629553513,61.93
Michigan City,41.7075,-86.895,78.46,83,1,3.44,US,1629553515,75.79
Seymchan,62.8833,152.4333,57.42,67,65,4.92,RU,1629553516,57.42
Havre-St-Pierre,50.2334,-63.5986,64.76,55,75,4.61,CA,1629553259,64.76
Sabang,5.8933,95.3214,82.11,73,93,15.32,ID,1629553518,82.11
Shache,38.4167,77.2406,84.78,15,28,3.85,CN,1629553520,84.78
Vágur,61.4732,-6.8119,51.89,92,100,24.94,FO,1629553521,51.89
Hoquiam,46.9809,-123.8893,57.18,65,90,3.44,US,1629553523,56.37
Antofagasta,-23.65,-70.4,58.28,72,40,5.59,CL,1629553524,58.28
Jiayuguan City,39.8167,98.3,76.42,17,100,10.07,CN,1629553525,76.42
Boueni,-12.9025,45.0761,82.38,71,1,10.87,YT,1629553527,82.38
Los Llanos de Aridane,28.6585,-17.9182,74.95,69,0,11.5,ES,1629553528,74.95
Beyneu,45.3167,55.2,97.84,14,0,12.77,KZ,1629553530,97.84
Sobolevo,54.4299,31.8996,68.09,62,84,7.74,RU,1629553531,68.09
Uberlândia,-18.9186,-48.2772,76.21,33,0,11.5,BR,1629553382,76.21
Guérande,47.3291,-2.4283,67.66,94,94,13.44,FR,1629553533,66.76
Kozani,40.3011,21.7864,66.88,77,41,5.75,GR,1629553535,66.88
Sarandi,-23.4436,-51.8739,83.75,28,0,11.5,BR,1629553536,83.75
Achinsk,56.2694,90.4993,54.19,74,100,6.17,RU,1629553537,54.19
Noumea,-22.2763,166.4572,64.38,85,99,11.16,NC,1629553539,64.38
Hervey Bay,-25.2986,152.8535,61.03,73,0,2.08,AU,1629553540,61.03
Itajuípe,-14.6781,-39.375,77.79,40,35,4.41,BR,1629553541,77.79
Vestmannaeyjar,63.4427,-20.2734,52.79,87,75,35.68,IS,1629553543,52.79
Codrington,-38.2667,141.9667,48.76,91,7,11.99,AU,1629553544,48.76
Hobyo,5.3505,48.5268,79.48,79,34,28.77,SO,1629553545,79.48
Dwārka,22.2394,68.9678,81.73,74,100,10.45,IN,1629553547,81.73
Merauke,-8.4667,140.3333,77.68,89,40,14.29,ID,1629553548,77.68
High Level,58.5169,-117.136,35.71,100,40,3.44,CA,1629553549,35.71
Exeter,50.7236,-3.5275,72.79,77,40,6.91,GB,1629553312,70.41
Mamit,23.9333,92.4833,69.31,99,78,3.85,IN,1629553552,69.31
Buraidah,26.326,43.975,108.05,8,0,13.2,SA,1629553553,108.05
Ambon City,-3.6954,128.1814,78.76,83,100,10.22,ID,1629553554,78.76
Meulaboh,4.1363,96.1285,77.92,86,100,1.63,ID,1629553556,77.92
Chokwé,-24.5333,32.9833,78.1,54,99,6.55,MZ,1629553557,78.1
Rognedino,53.8015,33.5576,74.46,42,0,9.48,RU,1629553558,74.46
Khorixas,-20.3667,14.9667,77.31,10,0,11.21,NA,1629553560,77.31
Yatou,37.15,122.3833,69.93,94,51,5.66,CN,1629553561,69.93
Samarai,-10.6167,150.6667,79.66,85,100,11.45,PG,1629553562,79.66
Shingū,33.7333,135.9833,80.91,93,100,3.71,JP,1629553564,80.91
Aykhal,66.0,111.5,48.25,67,9,12.01,RU,1629553565,48.25
Oranjestad,12.524,-70.027,85.95,70,40,18.41,AW,1629553566,85.95
Verāval,20.9,70.3667,77.56,89,100,11.86,IN,1629553568,77.56
Talaya,61.3833,152.75,56.55,73,33,9.98,RU,1629553569,56.55
Naze,28.3667,129.4833,79.03,91,76,11.18,JP,1629553570,79.03
Tuatapere,-46.1333,167.6833,41.83,86,100,7.38,NZ,1629553572,41.83
Le Mars,42.7942,-96.1656,62.11,82,1,10.36,US,1629553573,60.62
Kaniama,-7.5667,24.1833,87.1,30,100,1.41,CD,1629553574,87.1
Arbazh,57.6804,48.3065,85.6,29,100,9.82,RU,1629553576,85.6
Lucknow,26.85,80.9167,85.98,89,75,4.61,IN,1629553310,85.98
Resistencia,-27.4606,-58.9839,71.1,80,40,11.5,AR,1629553578,62.76
İskele,39.484,26.9278,87.89,27,0,24.16,TR,1629553579,87.89
Birao,10.2849,22.7882,82.81,64,27,4.29,CF,1629553581,82.81
Guiglo,6.5456,-7.4966,80.87,87,54,2.21,CI,1629553582,80.87
Balyqshy,47.0667,51.8667,100.4,14,0,13.42,KZ,1629553311,100.4
Cairns,-16.9167,145.7667,75.07,100,90,10.36,AU,1629553584,70.41
Witu,-2.3889,40.4382,77.16,67,20,14.54,KE,1629553586,77.16
Kathu,7.9178,98.3332,78.62,76,100,7.31,TH,1629553587,78.62
Peniche,39.3558,-9.3811,85.48,75,4,10.31,PT,1629553588,74.86
Coyhaique,-45.5752,-72.0662,34.41,86,90,5.75,CL,1629553590,33.75
Kaeo,-35.1,173.7833,54.32,95,100,13.6,NZ,1629553591,54.32
Avera,33.194,-82.5271,80.47,66,3,2.77,US,1629553592,77.65
Júlio de Castilhos,-29.2269,-53.6817,52.18,76,50,12.44,BR,1629553594,52.18
Mandurah,-32.55,115.7,58.91,63,40,21.43,AU,1629553595,58.86
Kabare,-2.4683,28.8242,72.23,60,100,2.64,CD,1629553596,72.23
Sasebo,33.1592,129.7228,80.58,90,100,12.12,JP,1629553598,80.58
Campos dos Goytacazes,-21.75,-41.3,78.85,57,0,6.91,BR,1629553599,78.85
Rosario,-32.9468,-60.6393,60.82,44,0,8.01,AR,1629553495,59.59
Malaṅgawā,26.8568,85.5581,82.42,79,93,4.32,NP,1629553601,82.42
Yangi Marg`ilon,40.4272,71.7189,92.12,25,12,9.22,UZ,1629553603,92.12
Port Said,31.2565,32.2841,87.78,70,0,13.8,EG,1629553604,87.78
Pahrump,36.2083,-115.9839,78.17,44,0,1.99,US,1629553605,75.92
Būlaevo,54.9056,70.4439,81.23,38,12,2.01,KZ,1629553311,81.23
Acapulco de Juárez,16.8634,-99.8901,78.75,87,100,4.34,MX,1629553582,78.75
Turan,16.0678,108.2208,86.05,74,20,2.3,VN,1629553609,84.18
Barra de Tecoanapa,16.5167,-98.75,77.23,87,100,6.22,MX,1629553610,77.23
Forio,40.7342,13.8646,89.89,73,0,15.01,IT,1629553612,84.76
Tahara,34.6667,137.2667,79.02,84,100,7.23,JP,1629553613,78.75
Huilong,31.8111,121.655,79.14,83,76,4.56,CN,1629553614,79.14
Brae,60.3964,-1.353,58.91,69,80,15.39,GB,1629553616,58.91
Pangnirtung,66.1451,-65.7125,49.96,69,9,3.04,CA,1629553617,49.96
Waingapu,-9.6567,120.2641,75.99,87,7,9.42,ID,1629553618,75.99
Rocca Priora,41.7786,12.7482,91.2,36,20,4.0,IT,1629553620,84.81
Vardø,70.3705,31.1107,50.2,81,100,18.03,NO,1629553621,50.2
Benguela,-12.5763,13.4055,75.33,72,49,11.45,AO,1629553622,75.33
Stokmarknes,68.5646,14.9108,54.5,70,86,9.6,NO,1629553624,50.38
Brookings,44.3114,-96.7984,61.21,77,75,19.57,US,1629553383,57.47
Dingle,10.9995,122.6711,77.59,87,100,1.48,PH,1629553626,77.59
Panalingaan,8.7842,117.4231,79.92,83,100,3.51,PH,1629553627,79.92
Mallaig,54.2169,-111.3685,43.21,69,11,2.39,CA,1629553629,40.14
Srednekolymsk,67.45,153.6833,60.76,49,95,6.06,RU,1629553630,60.76
Acaraú,-2.8856,-40.12,88.29,47,5,17.83,BR,1629553631,88.29
Timizart,36.8,4.2667,96.67,29,4,10.2,DZ,1629553633,96.67
Kyren,51.6828,102.1408,46.2,96,100,0.51,RU,1629553634,46.2
Sémbé,1.6481,14.5806,82.74,63,77,4.14,CG,1629553635,82.74
São José do Egito,-7.4789,-37.2744,85.93,28,7,10.25,BR,1629553637,85.93
Birjand,32.8663,59.2211,91.87,6,0,6.91,IR,1629553638,91.87
Dakar,14.6937,-17.4441,86.88,77,61,6.76,SN,1629553443,86.88
Biltine,14.5333,20.9167,95.13,28,10,0.38,TD,1629553640,95.13
Camalú,30.85,-116.0667,65.88,77,95,0.65,MX,1629553642,65.88
Imbituba,-28.24,-48.6703,71.49,59,5,6.82,BR,1629553413,71.49
Ilulissat,69.2167,-51.1,46.42,71,75,3.44,GL,1629553644,46.42
Bogorodskoye,56.55,37.8833,66.78,65,100,6.58,RU,1629553645,66.78
Longyearbyen,78.2186,15.6401,40.84,75,40,5.75,SJ,1629553647,40.84
Mwene-Ditu,-7.0,23.45,84.43,38,100,4.81,CD,1629553648,84.43
Rodrigues Alves,-7.738,-72.6509,88.0,39,5,3.58,BR,1629553649,88.0
Bulri,24.8667,68.3333,90.09,50,86,17.45,PK,1629553651,90.09
Dauphin,51.1494,-100.0502,55.54,94,90,12.66,CA,1629553652,55.54
Mirebalais,18.8333,-72.1053,84.92,62,20,5.75,HT,1629553653,84.92
Xining,36.6167,101.7667,55.33,90,100,1.36,CN,1629553655,55.33
Steamboat Springs,40.485,-106.8317,54.9,85,1,0.0,US,1629553656,45.39
Palencia,42.4167,-4.5,84.92,16,12,11.61,ES,1629553615,84.92
Porto Santo,33.072,-16.3415,81.3,57,40,9.22,PT,1629553659,75.58
Cayenne,4.9333,-52.3333,87.84,76,40,7.0,GF,1629553660,86.09
Kintampo,8.0563,-1.7306,73.69,91,100,3.74,GH,1629553661,73.69
Mergen,49.1833,125.2167,61.72,98,100,4.92,CN,1629553663,61.72
Tagusao,9.1924,117.8141,81.05,80,100,0.49,PH,1629553664,81.05
Urucará,-2.5364,-57.76,91.92,43,7,4.45,BR,1629553666,91.92
Yuci,37.6803,112.7319,73.15,83,100,6.71,CN,1629553667,73.15
Amberley,39.2048,-84.428,81.07,77,1,3.0,US,1629553668,76.59
Yerbogachën,61.2767,108.0108,64.27,59,100,5.26,RU,1629553670,64.27
Clarksburg,39.2807,-80.3445,77.11,94,90,3.44,US,1629553671,70.63
Rawalpindi,33.6007,73.0679,88.23,60,12,1.99,PK,1629553387,88.23
Cape Canaveral,28.4058,-80.6048,88.05,81,20,4.61,US,1629553632,84.27
Rudnya,54.947,31.0934,60.93,79,83,12.66,RU,1629553675,60.93
Log,49.4844,43.8613,84.63,32,48,10.69,RU,1629553676,84.63
São Filipe,14.8961,-24.4956,81.23,77,79,5.68,CV,1629553677,81.23
Khāsh,28.2211,61.2158,89.49,8,0,20.18,IR,1629553679,89.49
Malinovskiy,61.1953,62.8397,84.96,29,69,12.06,RU,1629553680,84.96
Sorong,-0.8833,131.25,78.4,84,100,4.52,ID,1629553681,78.4
Loukhi,66.0764,33.0381,56.8,87,99,2.48,RU,1629553683,56.8
Manokwari,-0.8667,134.0833,79.0,77,22,2.93,ID,1629553684,79.0
Antipovka,49.8299,45.3122,87.04,35,97,14.38,RU,1629553685,87.04
Boa Vista,2.8197,-60.6733,84.18,70,75,9.22,BR,1629553687,84.18
Nemuro,43.3236,145.575,54.07,96,100,7.96,JP,1629553688,54.07
Kango,0.1943,10.0951,82.26,64,99,2.39,GA,1629553689,82.26
Sioux Lookout,50.1001,-91.917,66.27,82,75,12.66,CA,1629553691,66.27
Rudnogorsk,57.2639,103.7519,60.4,54,89,4.63,RU,1629553692,60.4
Phalombe,-15.8064,35.6507,81.52,33,84,1.05,MW,1629553693,81.52
Lingdong,46.5669,131.1453,67.21,88,100,2.82,CN,1629553695,67.21
